[
  {
    "id": "1",
    "customerid": "1",
    "street": "Kulas Light",
    "suite": "Apt. 556",
    "city": "Gwenborough",
    "zipcode": "92998-3874",
    "geo": {
      "lat": "-37.3159",
      "lng": "81.1496"
    }
  },
  {
    "id": "2",
    "customerid": "1",
    "street": "Victor Plains",
    "suite": "Suite 879",
    "city": "Wisokyburgh",
    "zipcode": "90566-7771",
    "geo": {
      "lat": "-43.9509",
      "lng": "-34.4618"
    }
  },
  {
    "id": "3",
    "customerid": "2",
    "street": "Douglas Extension",
    "suite": "Suite 847",
    "city": "McKenziehaven",
    "zipcode": "59590-4157",
    "geo": {
      "lat": "-68.6102",
      "lng": "-47.0653"
    }
  },
  {
    "id": "4",
    "customerid": "2",
    "street": "Hoeger Mall",
    "suite": "Apt. 692",
    "city": "South Elvis",
    "zipcode": "53919-4257",
    "geo": {
      "lat": "29.4572",
      "lng": "-164.2990"
    }
  },
  {
    "id": "5",
    "customerid": "3",
    "street": "Skiles Walks",
    "suite": "Suite 351",
    "city": "Roscoeview",
    "zipcode": "33263",
    "geo": {
      "lat": "-31.8129",
      "lng": "62.5342"
    }
  },
  {
    "id": "6",
    "customerid": "4",
    "street": "Norberto Crossing",
    "suite": "Apt. 950",
    "city": "South Christy",
    "zipcode": "23505-1337",
    "geo": {
      "lat": "-71.4197",
      "lng": "71.7478"
    }
  },
  {
    "id": "7",
    "customerid": "5",
    "street": "Rex Trail",
    "suite": "Suite 280",
    "city": "Howemouth",
    "zipcode": "58804-1099",
    "geo": {
      "lat": "24.8918",
      "lng": "21.8984"
    }
  },
  {
    "id": "8",
    "customerid": "6",
    "street": "Ellsworth Summit",
    "suite": "Suite 729",
    "city": "Aliyaview",
    "zipcode": "45169",
    "geo": {
      "lat": "-14.3990",
      "lng": "-120.7677"
    }
  },
  {
    "id": "9",
    "customerid": "7",
    "street": "Dayna Park",
    "suite": "Suite 449",
    "city": "Bartholomebury",
    "zipcode": "76495-3109",
    "geo": {
      "lat": "24.6463",
      "lng": "-168.8889"
    }
  },
  {
    "id": "10",
    "customerid": "8",
    "street": "Kattie Turnpike",
    "suite": "Suite 198",
    "city": "Lebsackbury",
    "zipcode": "31428-2261",
    "geo": {
      "lat": "-38.2386",
      "lng": "57.2232"
    }
  },
  {
    "id": "11",
    "customerid": "9",
    "street": "Douglas Extension",
    "suite": "Suite 847",
    "city": "McKenziehaven",
    "zipcode": "59590-4157",
    "geo": {
      "lat": "-68.6102",
      "lng": "-47.0653"
    }
  },
  {
    "id": "12",
    "customerid": "10",
    "street": "Kulas Light",
    "suite": "Apt. 556",
    "city": "Gwenborough",
    "zipcode": "92998-3874",
    "geo": {
      "lat": "-37.3159",
      "lng": "81.1496"
    }
  }
  ,
  {
    "id": "13",
    "customerid": "11",
    "street": "Kulas Light",
    "suite": "Apt. 556",
    "city": "Gwenborough",
    "zipcode": "92998-3874",
    "geo": {
      "lat": "-37.3159",
      "lng": "81.1496"
    }
  }
  ,
  {
    "id": "14",
    "customerid": "11",
    "street": "Kulas Light",
    "suite": "Apt. 556",
    "city": "Gwenborough",
    "zipcode": "92998-3874",
    "geo": {
      "lat": "-37.3159",
      "lng": "81.1496"
    }
  }
      
]